[
{"store_name": "VIJAY SALES - KOMPALLY", "store_website": "https://stores.vijaysales.com/vijay-sales-kompally-electronics-retail-and-repair-shop-kompally-rangareddy-281030/Home", "phone": "+914040169399", "address": "120, Fortune Towers, Green Park Avenue, Suchitra Circle Kompally Rangareddy  -  500014", "near_by_place": "Beside Reliance Mart", "location": "sun-city", "city": "k-v-rangareddy", "state": "telangana", "outlet_timing": "Opens at 11:00 AM", "map": "https://stores.vijaysales.com/vijay-sales-kompally-electronics-retail-and-repair-shop-kompally-rangareddy-281030/Map"},
{"store_name": "VIJAY SALES - SUNCITY", "store_website": "https://stores.vijaysales.com/vijay-sales-suncity-electronics-retail-and-repair-shop-sun-city-rangareddy-281017/Home", "phone": "+914029557641", "address": "Door No 13/20/71, Plot No 71, West End Col, Bandlaguda Jagir Sun City Rangareddy  -  500086", "near_by_place": "", "location": "sun-city", "city": "k-v-rangareddy", "state": "telangana", "outlet_timing": "Opens at 10:45 AM", "map": "https://stores.vijaysales.com/vijay-sales-suncity-electronics-retail-and-repair-shop-sun-city-rangareddy-281017/Map"},
{"store_name": "Vijay Sales - Chandrayangutta", "store_website": "https://stores.vijaysales.com/vijay-sales-chandrayangutta-electronics-retail-and-repair-shop-chandrayangutta-hyderabad-313410/Home", "phone": "+914047535555", "address": "Gulshan E Iqbal Colony Chandrayangutta Hyderabad  -  500005", "near_by_place": "Opposite Hayaath Junior College", "location": "rajender-nagar", "city": "hyderabad", "state": "telangana", "outlet_timing": "Opens at 11:00 AM", "map": "https://stores.vijaysales.com/vijay-sales-chandrayangutta-electronics-retail-and-repair-shop-chandrayangutta-hyderabad-313410/Map"},
{"store_name": "VIJAY SALES - MAILARDEVPALLY", "store_website": "https://stores.vijaysales.com/vijay-sales-mailardevpally-electronics-retail-and-repair-shop-rajender-nagar-hyderabad-300814/Home", "phone": "+914047535555", "address": "8/5/121/49/50A 8/5/121/50/1, PN 49 & 50, WN 18, Blk 13, Bandlaguda Rajender Nagar Hyderabad  -  500005", "near_by_place": "Opposite Mailardevpally Police Station", "location": "rajender-nagar", "city": "hyderabad", "state": "telangana", "outlet_timing": "Opens at 11:00 AM", "map": "https://stores.vijaysales.com/vijay-sales-mailardevpally-electronics-retail-and-repair-shop-rajender-nagar-hyderabad-300814/Map"},
{"store_name": "VIJAY SALES - TOLICHOWKI", "store_website": "https://stores.vijaysales.com/vijay-sales-tolichowki-electronics-retail-and-repair-shop-tolichowki-hyderabad-286638/Home", "phone": "+914023565751", "address": "D No 8/1/363/2, 3, 9 & 10, Aditya Nagar Tolichowki Hyderabad  -  500008", "near_by_place": "Beside Varun Motors", "location": "rajender-nagar", "city": "hyderabad", "state": "telangana", "outlet_timing": "Opens at 11:00 AM", "map": "https://stores.vijaysales.com/vijay-sales-tolichowki-electronics-retail-and-repair-shop-tolichowki-hyderabad-286638/Map"},
{"store_name": "VIJAY SALES - MEHDIPATNAM", "store_website": "https://stores.vijaysales.com/vijay-sales-mehdipatnam-electronics-retail-and-repair-shop-mehdipatnam-hyderabad-280947/Home", "phone": "+914035163147", "address": "Door No 10/3/304/C, Humayun Nagar Colony Mehdipatnam Hyderabad  -  500028", "near_by_place": "Beside Mahesh Garments", "location": "rajender-nagar", "city": "hyderabad", "state": "telangana", "outlet_timing": "Opens at 11:00 AM", "map": "https://stores.vijaysales.com/vijay-sales-mehdipatnam-electronics-retail-and-repair-shop-mehdipatnam-hyderabad-280947/Map"},
{"store_name": "VIJAY SALES - KOTHAPET", "store_website": "https://stores.vijaysales.com/vijay-sales-kothapet-electronics-retail-and-repair-shop-kothapet-hyderabad-281037/Home", "phone": "+914040190214", "address": "Survey No 7 & 8, Vaishnavi Onyx 2, Plot No 5/15 Kothapet Hyderabad  -  500035", "near_by_place": "Opposite Metro Pillar No A1632", "location": "rajender-nagar", "city": "hyderabad", "state": "telangana", "outlet_timing": "Opens at 11:00 AM", "map": "https://stores.vijaysales.com/vijay-sales-kothapet-electronics-retail-and-repair-shop-kothapet-hyderabad-281037/Map"},
{"store_name": "VIJAY SALES - MALAKPET", "store_website": "https://stores.vijaysales.com/vijay-sales-malakpet-electronics-retail-and-repair-shop-malakpet-hyderabad-281028/Home", "phone": "+914024555577", "address": "No 16/2/681/D, Municipal Colony Malakpet Hyderabad  -  500036", "near_by_place": "Opposite Metro Pillar No A1441", "location": "rajender-nagar", "city": "hyderabad", "state": "telangana", "outlet_timing": "Opens at 11:00 AM", "map": "https://stores.vijaysales.com/vijay-sales-malakpet-electronics-retail-and-repair-shop-malakpet-hyderabad-281028/Map"},
{"store_name": "VIJAY SALES - SHAHIBAUG", "store_website": "https://stores.vijaysales.com/vijay-sales-shahibaug-electronics-retail-and-repair-shop-shahibaug-ahmedabad-281004/Home", "phone": "+917961603232", "address": "Sumel 11, Indian Textile Plaza, Jahangir Mill Compound Shahibaug Ahmedabad  -  380004", "near_by_place": "Near Namaste Circle", "location": "ashram-road", "city": "ahmedabad", "state": "gujarat", "outlet_timing": "Opens at 11:00 AM", "map": "https://stores.vijaysales.com/vijay-sales-shahibaug-electronics-retail-and-repair-shop-shahibaug-ahmedabad-281004/Map"},
{"store_name": "VIJAY SALES - VISHALA", "store_website": "https://stores.vijaysales.com/vijay-sales-vishala-electronics-retail-and-repair-shop-vishala-circle-ahmedabad-281024/Home", "phone": "+917966046666", "address": "City Gate, Shantabag Rehnuma Society, Narol Sarkhej Road Vishala Circle Ahmedabad  -  380007", "near_by_place": "Beside Hotel Vishala", "location": "ashram-road", "city": "ahmedabad", "state": "gujarat", "outlet_timing": "Opens at 11:00 AM", "map": "https://stores.vijaysales.com/vijay-sales-vishala-electronics-retail-and-repair-shop-vishala-circle-ahmedabad-281024/Map"},
{"store_name": "VIJAY SALES - KRISHNA BAUG", "store_website": "https://stores.vijaysales.com/vijay-sales-krishna-baug-electronics-retail-and-repair-shop-maninagar-ahmedabad-280925/Home", "phone": "+917966042222", "address": "Lala Lajpat Rai Marg, Krishna Baug, Char Rasta Maninagar Ahmedabad  -  380008", "near_by_place": "Near Axis Bank", "location": "ashram-road", "city": "ahmedabad", "state": "gujarat", "outlet_timing": "Opens at 11:00 AM", "map": "https://stores.vijaysales.com/vijay-sales-krishna-baug-electronics-retail-and-repair-shop-maninagar-ahmedabad-280925/Map"},
{"store_name": "VIJAY SALES - ASHRAM ROAD", "store_website": "https://stores.vijaysales.com/vijay-sales-ashram-road-electronics-retail-and-repair-shop-ashram-road-ahmedabad-280924/Home", "phone": "+917966042000", "address": "Ratna Business Square, Old Natraj Cinema Ashram Road Ahmedabad  -  380009", "near_by_place": "Opposite H K College", "location": "ashram-road", "city": "ahmedabad", "state": "gujarat", "outlet_timing": "Opens at 11:00 AM", "map": "https://stores.vijaysales.com/vijay-sales-ashram-road-electronics-retail-and-repair-shop-ashram-road-ahmedabad-280924/Map"},
{"store_name": "VIJAY SALES - DEVARC MALL", "store_website": "https://stores.vijaysales.com/vijay-sales-devarc-mall-electronics-retail-and-repair-shop-iskon-circle-ahmedabad-280926/Home", "phone": "+917966040000", "address": "Shop No 1, Ground Floor, Devarc Mall, S G Road Iskon Circle Ahmedabad  -  380015", "near_by_place": "Near Fun Republic", "location": "ashram-road", "city": "ahmedabad", "state": "gujarat", "outlet_timing": "Opens at 11:00 AM", "map": "https://stores.vijaysales.com/vijay-sales-devarc-mall-electronics-retail-and-repair-shop-iskon-circle-ahmedabad-280926/Map"},
{"store_name": "VIJAY SALES - RAKHIAL", "store_website": "https://stores.vijaysales.com/vijay-sales-rakhial-electronics-retail-and-repair-shop-rakhial-ahmedabad-281019/Home", "phone": "+917961558181", "address": "Gr & 1st Flr, Sumel 8, Khambatta Centre, E Blk, Gomtipur, Amts Bus Stop Rakhial Ahmedabad  -  380023", "near_by_place": "Near Ajit Mall", "location": "ashram-road", "city": "ahmedabad", "state": "gujarat", "outlet_timing": "Opens at 11:00 AM", "map": "https://stores.vijaysales.com/vijay-sales-rakhial-electronics-retail-and-repair-shop-rakhial-ahmedabad-281019/Map"},
{"store_name": "Vijay Sales - RDC Ghaziabad", "store_website": "https://stores.vijaysales.com/vijay-sales-rdc-ghaziabad-electronics-retail-and-repair-shop-raj-nagar-ghaziabad-281022/Home", "phone": "+911204882737", "address": "No B24 & 25, Gr & 1st Floor, 4G Tower, RDC Raj Nagar Ghaziabad  -  201010", "near_by_place": "", "location": "raj-nagar", "city": "ghaziabad", "state": "uttar-pradesh", "outlet_timing": "Opens at 11:00 AM", "map": "https://stores.vijaysales.com/vijay-sales-rdc-ghaziabad-electronics-retail-and-repair-shop-raj-nagar-ghaziabad-281022/Map"},
{"store_name": "VIJAY SALES - INDIRAPURAM", "store_website": "https://stores.vijaysales.com/vijay-sales-indirapuram-electronics-retail-and-repair-shop-ahinsa-khand-1-ghaziabad-280939/Home", "phone": "+911204026800", "address": "UGF 114, 115ND, Anchor Store, OC Square, Orange Country, GH 4 Ahinsa Khand 1 Ghaziabad  -  201014", "near_by_place": "", "location": "raj-nagar", "city": "ghaziabad", "state": "uttar-pradesh", "outlet_timing": "Opens at 11:00 AM", "map": "https://stores.vijaysales.com/vijay-sales-indirapuram-electronics-retail-and-repair-shop-ahinsa-khand-1-ghaziabad-280939/Map"},
{"store_name": "VIJAY SALES - NOIDA", "store_website": "https://stores.vijaysales.com/vijay-sales-noida-electronics-retail-and-repair-shop-sector-18-noida-280982/Home", "phone": "+911204014300", "address": "No K5 & K6 Sector 18 Noida  -  201301", "near_by_place": "Adjoining Ebony Gautier Showroom", "location": "sector-18", "city": "noida", "state": "uttar-pradesh", "outlet_timing": "Opens at 11:00 AM", "map": "https://stores.vijaysales.com/vijay-sales-noida-electronics-retail-and-repair-shop-sector-18-noida-280982/Map"},
{"store_name": "Vijay Sales - Greater Noida", "store_website": "https://stores.vijaysales.com/vijay-sales-greater-noida-electronics-retail-and-repair-shop-alpha-i-commercial-belt-noida-281021/Home", "phone": "+911204882700", "address": "No A6, Veera Tower, Gautam Budh Nagar Alpha I Commercial Belt Noida  -  201306", "near_by_place": "", "location": "sector-18", "city": "noida", "state": "uttar-pradesh", "outlet_timing": "Opens at 11:00 AM", "map": "https://stores.vijaysales.com/vijay-sales-greater-noida-electronics-retail-and-repair-shop-alpha-i-commercial-belt-noida-281021/Map"},
{"store_name": "VIJAY SALES - DARYAGANJ", "store_website": "https://stores.vijaysales.com/vijay-sales-daryaganj-electronics-retail-and-repair-shop-dariyaganj-new-delhi-281038/Home", "phone": "+911142262288", "address": "No 16B/4, Asaf Ali Road Dariyaganj New Delhi  -  110002", "near_by_place": "Opposite LNJP Hospital", "location": "karol-bagh", "city": "new-delhi", "state": "delhi", "outlet_timing": "Opens at 11:00 AM", "map": "https://stores.vijaysales.com/vijay-sales-daryaganj-electronics-retail-and-repair-shop-dariyaganj-new-delhi-281038/Map"},
{"store_name": "VIJAY SALES - KAROL BAGH", "store_website": "https://stores.vijaysales.com/vijay-sales-karol-bagh-electronics-retail-and-repair-shop-karol-bagh-new-delhi-280916/Home", "phone": "+911166660666", "address": "No 3384, Deshbandhu Gupta Road Karol Bagh New Delhi  -  110005", "near_by_place": "Adjoining Hotel Gold Palace", "location": "karol-bagh", "city": "new-delhi", "state": "delhi", "outlet_timing": "Opens at 11:00 AM", "map": "https://stores.vijaysales.com/vijay-sales-karol-bagh-electronics-retail-and-repair-shop-karol-bagh-new-delhi-280916/Map"},
{"store_name": "VIJAY SALES - PATEL NAGAR", "store_website": "https://stores.vijaysales.com/vijay-sales-patel-nagar-electronics-retail-and-repair-shop-west-patel-nagar-new-delhi-280917/Home", "phone": "+911166660888", "address": "No W8 West Patel Nagar New Delhi  -  110008", "near_by_place": "Opposite Metro Pillar No 232", "location": "karol-bagh", "city": "new-delhi", "state": "delhi", "outlet_timing": "Opens at 11:00 AM", "map": "https://stores.vijaysales.com/vijay-sales-patel-nagar-electronics-retail-and-repair-shop-west-patel-nagar-new-delhi-280917/Map"},
{"store_name": "VIJAY SALES - MODEL TOWN III", "store_website": "https://stores.vijaysales.com/vijay-sales-model-town-iii-electronics-retail-and-repair-shop-model-town-3-new-delhi-280922/Home", "phone": "+911166660444", "address": "No H2, Ring Road Model Town 3 New Delhi  -  110009", "near_by_place": "Opposite Metro Pillar No 41", "location": "karol-bagh", "city": "new-delhi", "state": "delhi", "outlet_timing": "Opens at 11:00 AM", "map": "https://stores.vijaysales.com/vijay-sales-model-town-iii-electronics-retail-and-repair-shop-model-town-3-new-delhi-280922/Map"},
{"store_name": "VIJAY SALES - HAUZ KHAS", "store_website": "https://stores.vijaysales.com/vijay-sales-hauz-khas-electronics-retail-and-repair-shop-hauz-khas-new-delhi-280967/Home", "phone": "+911143169050", "address": "M1, Sri Aurobindo Marg, Block M, Kharera Hauz Khas New Delhi  -  110016", "near_by_place": "Near Delhi Mri Scan", "location": "karol-bagh", "city": "new-delhi", "state": "delhi", "outlet_timing": "Opens at 11:00 AM", "map": "https://stores.vijaysales.com/vijay-sales-hauz-khas-electronics-retail-and-repair-shop-hauz-khas-new-delhi-280967/Map"},
{"store_name": "VIJAY SALES - SAKET", "store_website": "https://stores.vijaysales.com/vijay-sales-saket-electronics-retail-and-repair-shop-saket-new-delhi-281011/Home", "phone": "+911140751800", "address": "No J/287, Block J, Saket Road Saket New Delhi  -  110017", "near_by_place": "", "location": "karol-bagh", "city": "new-delhi", "state": "delhi", "outlet_timing": "Opens at 11:00 AM", "map": "https://stores.vijaysales.com/vijay-sales-saket-electronics-retail-and-repair-shop-saket-new-delhi-281011/Map"},
{"store_name": "VIJAY SALES - NTR CIRCLE", "store_website": "https://stores.vijaysales.com/vijay-sales-ntr-circle-electronics-retail-and-repair-shop-mg-road-vijayawada-280966/Home", "phone": "+918662550441", "address": "Door No 58/1/1/2 MG Road Vijayawada  -  520010", "near_by_place": "Beside NTR Circle", "location": "mg-road", "city": "vijayawada", "state": "andhra-pradesh", "outlet_timing": "Opens at 11:00 AM", "map": "https://stores.vijaysales.com/vijay-sales-ntr-circle-electronics-retail-and-repair-shop-mg-road-vijayawada-280966/Map"},
{"store_name": "VIJAY SALES - VIJAYAWADA", "store_website": "https://stores.vijaysales.com/vijay-sales-vijayawada-electronics-retail-and-repair-shop-m-g-road-vijayawada-281014/Home", "phone": "+918836661331", "address": "No 40/121/3, Ground Floor, Surya Towers M G Road Vijayawada  -  520010", "near_by_place": "", "location": "mg-road", "city": "vijayawada", "state": "andhra-pradesh", "outlet_timing": "Opens at 10:00 AM", "map": "https://stores.vijaysales.com/vijay-sales-vijayawada-electronics-retail-and-repair-shop-m-g-road-vijayawada-281014/Map"},
{"store_name": "VIJAY SALES - LEELA MAHAL CIRCLE", "store_website": "https://stores.vijaysales.com/vijay-sales-leela-mahal-circle-electronics-retail-and-repair-shop-leela-mahal-circle-tirupati-280954/Home", "phone": "+918772283814", "address": "Door No 20/3/126/D1, Tirumala By Pass Road Leela Mahal Circle Tirupati  -  517501", "near_by_place": "Besides Ps4 Restaurant", "location": "m-r-pally", "city": "tirupati", "state": "andhra-pradesh", "outlet_timing": "Opens at 10:15 AM", "map": "https://stores.vijaysales.com/vijay-sales-leela-mahal-circle-electronics-retail-and-repair-shop-leela-mahal-circle-tirupati-280954/Map"},
{"store_name": "VIJAY SALES - TIRUPATHI", "store_website": "https://stores.vijaysales.com/vijay-sales-tirupathi-electronics-retail-and-repair-shop-m-r-pally-tirupati-280963/Home", "phone": "+918772223326", "address": "Door No 23/8/162/3A, Ward No 23, Air Bypass Road M R Pally Tirupati  -  517501", "near_by_place": "Opp Manyavar & Akash Institute", "location": "m-r-pally", "city": "tirupati", "state": "andhra-pradesh", "outlet_timing": "Opens at 10:30 AM", "map": "https://stores.vijaysales.com/vijay-sales-tirupathi-electronics-retail-and-repair-shop-m-r-pally-tirupati-280963/Map"},
{"store_name": "VIJAY SALES - SOHNA CHOWK", "store_website": "https://stores.vijaysales.com/vijay-sales-sohna-chowk-electronics-retail-and-repair-shop-jacobpura-gurugram-280999/Home", "phone": "+911246903600", "address": "No SCO 10 & 11, Jail Road Jacobpura Gurugram  -  122001", "near_by_place": "Near Masjid", "location": "mehrauli-gurgaon-road", "city": "gurgaon", "state": "haryana", "outlet_timing": "Opens at 11:00 AM", "map": "https://stores.vijaysales.com/vijay-sales-sohna-chowk-electronics-retail-and-repair-shop-jacobpura-gurugram-280999/Map"},
{"store_name": "VIJAY SALES - GURGAON", "store_website": "https://stores.vijaysales.com/vijay-sales-gurgaon-electronics-retail-and-repair-shop-sector-29-gurugram-280928/Home", "phone": "+911246175900", "address": "No SCO315 Sector 29 Gurugram  -  122002", "near_by_place": "Near Huda City Metro Station", "location": "mehrauli-gurgaon-road", "city": "gurgaon", "state": "haryana", "outlet_timing": "Opens at 11:00 AM", "map": "https://stores.vijaysales.com/vijay-sales-gurgaon-electronics-retail-and-repair-shop-sector-29-gurugram-280928/Map"},
{"store_name": "VIJAY SALES - MEHRAULI", "store_website": "https://stores.vijaysales.com/vijay-sales-mehrauli-electronics-retail-and-repair-shop-mehrauli-gurgaon-road-gurugram-280997/Home", "phone": "+911244606930", "address": "Lower Ground Floor, The Plaza Mall Mehrauli Gurgaon Road Gurugram  -  122002", "near_by_place": "Near Fabindia", "location": "dundahera", "city": "gurgaon", "state": "haryana", "outlet_timing": "Opens at 11:00 AM", "map": "https://stores.vijaysales.com/vijay-sales-mehrauli-electronics-retail-and-repair-shop-mehrauli-gurgaon-road-gurugram-280997/Map"},
{"store_name": "VIJAY SALES - DUNDAHERA", "store_website": "https://stores.vijaysales.com/vijay-sales-dundahera-electronics-retail-and-repair-shop-dundahera-gurugram-280949/Home", "phone": "+911246573222", "address": "No G38/75, Old New Delhi Gurgaon Road Dundahera Gurugram  -  122016", "near_by_place": "Near Radha Rani Clothes", "location": "dundahera", "city": "gurgaon", "state": "haryana", "outlet_timing": "Opens at 11:00 AM", "map": "https://stores.vijaysales.com/vijay-sales-dundahera-electronics-retail-and-repair-shop-dundahera-gurugram-280949/Map"},
{"store_name": "VIJAY SALES - MEWLA", "store_website": "https://stores.vijaysales.com/vijay-sales-mewla-electronics-retail-and-repair-shop-sector-27-faridabad-281006/Home", "phone": "+911292565700", "address": "No 14/3, Pocket B, Mathura Road, Mewla, Maharajpur Sector 27 Faridabad  -  121003", "near_by_place": "", "location": "sector-15a", "city": "faridabad", "state": "haryana", "outlet_timing": "Opens at 11:00 AM", "map": "https://stores.vijaysales.com/vijay-sales-mewla-electronics-retail-and-repair-shop-sector-27-faridabad-281006/Map"},
{"store_name": "VIJAY SALES - FARIDABAD", "store_website": "https://stores.vijaysales.com/vijay-sales-faridabad-electronics-retail-and-repair-shop-sector-15a-faridabad-280987/Home", "phone": "+911294259800", "address": "Crown Plaza, 29km Milestone Sector 15A Faridabad  -  121007", "near_by_place": "", "location": "sector-15a", "city": "faridabad", "state": "haryana", "outlet_timing": "Opens at 11:00 AM", "map": "https://stores.vijaysales.com/vijay-sales-faridabad-electronics-retail-and-repair-shop-sector-15a-faridabad-280987/Map"},
{"store_name": "VIJAY SALES - ULHAS NAGAR", "store_website": "https://stores.vijaysales.com/vijay-sales-ulhas-nagar-electronics-retail-and-repair-shop-ulhasnagar-ulhasnagar-280934/Home", "phone": "+912512565444", "address": "Gr& 1st Flr, Diamond Electric Industries, Red Cross Road Ulhasnagar Ulhasnagar  -  421003", "near_by_place": "Opposite Town Hall", "location": "ulhasnagar", "city": "ulhasnagar", "state": "maharashtra", "outlet_timing": "Opens at 11:00 AM", "map": "https://stores.vijaysales.com/vijay-sales-ulhas-nagar-electronics-retail-and-repair-shop-ulhasnagar-ulhasnagar-280934/Map"},
{"store_name": "VIJAY SALES - SADHU VASWANI CHOWK", "store_website": "https://stores.vijaysales.com/vijay-sales-sadhu-vaswani-chowk-electronics-retail-and-repair-shop-sadhu-vaswani-chowk-pune-280977/Home", "phone": "+912067201100", "address": "PMT Building Sadhu Vaswani Chowk Pune  -  411001", "near_by_place": "Near Baveria Motor", "location": "kondhwa-budruk", "city": "pune", "state": "maharashtra", "outlet_timing": "Opens at 11:00 AM", "map": "https://stores.vijaysales.com/vijay-sales-sadhu-vaswani-chowk-electronics-retail-and-repair-shop-sadhu-vaswani-chowk-pune-280977/Map"},
{"store_name": "VIJAY SALES - S. B. ROAD", "store_website": "https://stores.vijaysales.com/vijay-sales-s-b-road-electronics-retail-and-repair-shop-shivaji-nagar-pune-281018/Home", "phone": "+912067405700", "address": "Plot No 2, SW 1, Gr Flr, ICC Trade Tower, Senapati Bapat Road Shivaji Nagar Pune  -  411005", "near_by_place": "", "location": "kharadi", "city": "pune", "state": "maharashtra", "outlet_timing": "Opens at 11:00 AM", "map": "https://stores.vijaysales.com/vijay-sales-s-b-road-electronics-retail-and-repair-shop-shivaji-nagar-pune-281018/Map"},
{"store_name": "VIJAY SALES - SATARA ROAD", "store_website": "https://stores.vijaysales.com/vijay-sales-satara-road-electronics-retail-and-repair-shop-padmavati-pune-280986/Home", "phone": "+912048506800", "address": "Jai Tirth Society, Pune Satara Road Padmavati Pune  -  411009", "near_by_place": "Opposite Sharada Arcade", "location": "kharadi", "city": "pune", "state": "maharashtra", "outlet_timing": "Opens at 10:30 AM", "map": "https://stores.vijaysales.com/vijay-sales-satara-road-electronics-retail-and-repair-shop-padmavati-pune-280986/Map"},
{"store_name": "VIJAY SALES - HADAPSAR (KROME MALL)", "store_website": "https://stores.vijaysales.com/vijay-sales-hadapsar-krome-mall-electronics-retail-and-repair-shop-hadapsar-pune-280978/Home", "phone": "+912067201200", "address": "No 32/3, Amar Manor, Krome Plaza, Pune Solapur Road Hadapsar Pune  -  411013", "near_by_place": "Near Crome Furniture", "location": "kondhwa-budruk", "city": "pune", "state": "maharashtra", "outlet_timing": "Opens at 11:00 AM", "map": "https://stores.vijaysales.com/vijay-sales-hadapsar-krome-mall-electronics-retail-and-repair-shop-hadapsar-pune-280978/Map"},
{"store_name": "VIJAY SALES - CHANDAN NAGAR", "store_website": "https://stores.vijaysales.com/vijay-sales-chandan-nagar-electronics-retail-and-repair-shop-kharadi-pune-280983/Home", "phone": "+917045926061", "address": "Plot No 9, Sy No 48/2, Prabhakar Hights, Pune Nagar Road, Chandan Nagar Kharadi Pune  -  411014", "near_by_place": "Near Rupee Bank", "location": "kondhwa-budruk", "city": "pune", "state": "maharashtra", "outlet_timing": "Opens at 11:00 AM", "map": "https://stores.vijaysales.com/vijay-sales-chandan-nagar-electronics-retail-and-repair-shop-kharadi-pune-280983/Map"},
{"store_name": "VIJAY SALES - RAHATANI", "store_website": "https://stores.vijaysales.com/vijay-sales-rahatani-electronics-retail-and-repair-shop-pimple-saudagar-pune-280984/Home", "phone": "+912067123100", "address": "SN 16 to 19, Sy No 5/6, Divya Heights, Jagtap Dairy, Rahatani Pimple Saudagar Pune  -  411017", "near_by_place": "", "location": "kondhwa-budruk", "city": "pune", "state": "maharashtra", "outlet_timing": "Opens at 11:00 AM", "map": "https://stores.vijaysales.com/vijay-sales-rahatani-electronics-retail-and-repair-shop-pimple-saudagar-pune-280984/Map"},
{"store_name": "VIJAY SALES - OPERA HOUSE", "store_website": "https://stores.vijaysales.com/vijay-sales-opera-house-electronics-retail-and-repair-shop-opera-house-mumbai-280970/Home", "phone": "+912261710000", "address": "No 29, Mama Parmanand Road Opera House Mumbai  -  400004", "near_by_place": "", "location": "goregaon-west", "city": "mumbai", "state": "maharashtra", "outlet_timing": "Opens at 11:00 AM", "map": "https://stores.vijaysales.com/vijay-sales-opera-house-electronics-retail-and-repair-shop-opera-house-mumbai-280970/Map"},
{"store_name": "VIJAY SALES - MAHIM", "store_website": "https://stores.vijaysales.com/vijay-sales-mahim-electronics-retail-and-repair-shop-mahim-west-mumbai-280944/Home", "phone": "+912261711515", "address": "No 108, Dimple Building, Lady Jamshedji Road Mahim West Mumbai  -  400016", "near_by_place": "Near Victoria Church", "location": "ghatkopar-west", "city": "mumbai", "state": "maharashtra", "outlet_timing": "Opens at 11:00 AM", "map": "https://stores.vijaysales.com/vijay-sales-mahim-electronics-retail-and-repair-shop-mahim-west-mumbai-280944/Map"},
{"store_name": "VIJAY SALES - SION (WEST)", "store_website": "https://stores.vijaysales.com/vijay-sales-sion-west-electronics-retail-and-repair-shop-sion-west-mumbai-280930/Home", "phone": "+912261711717", "address": "Indrapuri Housing Society Sion West Mumbai  -  400022", "near_by_place": "Opposite Sion Circle", "location": "goregaon-east", "city": "mumbai", "state": "maharashtra", "outlet_timing": "Opens at 11:00 AM", "map": "https://stores.vijaysales.com/vijay-sales-sion-west-electronics-retail-and-repair-shop-sion-west-mumbai-280930/Map"},
{"store_name": "VIJAY SALES - PRABHADEVI", "store_website": "https://stores.vijaysales.com/vijay-sales-prabhadevi-electronics-retail-and-repair-shop-prabhadevi-mumbai-280971/Home", "phone": "+912261711111", "address": "No 384, Veer Savarkar Marg Prabhadevi Mumbai  -  400025", "near_by_place": "Opposite Sidhivinayak Temple", "location": "goregaon-west", "city": "mumbai", "state": "maharashtra", "outlet_timing": "Opens at 10:30 AM", "map": "https://stores.vijaysales.com/vijay-sales-prabhadevi-electronics-retail-and-repair-shop-prabhadevi-mumbai-280971/Map"},
{"store_name": "VIJAY SALES - CHEMBUR", "store_website": "https://stores.vijaysales.com/vijay-sales-chembur-electronics-retail-and-repair-shop-chembur-mumbai-280940/Home", "phone": "+912261719999", "address": "Bezzola Complex, Sion Trombay Road Chembur Mumbai  -  400050", "near_by_place": "", "location": "goregaon-west", "city": "mumbai", "state": "maharashtra", "outlet_timing": "Opens at 10:45 AM", "map": "https://stores.vijaysales.com/vijay-sales-chembur-electronics-retail-and-repair-shop-chembur-mumbai-280940/Map"},
{"store_name": "VIJAY SALES - KHAR (WEST)", "store_website": "https://stores.vijaysales.com/vijay-sales-khar-west-electronics-retail-and-repair-shop-khar-west-mumbai-280988/Home", "phone": "+912261712000", "address": "Shop No 501, Linking Road Khar West Mumbai  -  400052", "near_by_place": "Opposite Macdonald", "location": "goregaon-west", "city": "mumbai", "state": "maharashtra", "outlet_timing": "Opens at 11:00 AM", "map": "https://stores.vijaysales.com/vijay-sales-khar-west-electronics-retail-and-repair-shop-khar-west-mumbai-280988/Map"},
{"store_name": "VIJAY SALES - BELAPUR", "store_website": "https://stores.vijaysales.com/vijay-sales-belapur-electronics-retail-and-repair-shop-sector-11-navi-mumbai-280990/Home", "phone": "+912261710200", "address": "Hilton Center, Diwale Gaon Bus Stop Sector 11 Navi Mumbai  -  400614", "near_by_place": "Opposite K Star Hotel", "location": "vashi-sector-19d", "city": "navi-mumbai", "state": "maharashtra", "outlet_timing": "Opens at 11:00 AM", "map": "https://stores.vijaysales.com/vijay-sales-belapur-electronics-retail-and-repair-shop-sector-11-navi-mumbai-280990/Map"},
{"store_name": "VIJAY SALES - VASHI", "store_website": "https://stores.vijaysales.com/vijay-sales-vashi-electronics-retail-and-repair-shop-vashi-sector-19d-navi-mumbai-280975/Home", "phone": "+912262457979", "address": "Palm Beach Galleria Mall Vashi, Sector 19D Navi Mumbai  -  400703", "near_by_place": "", "location": "sector-7-kharghar", "city": "navi-mumbai", "state": "maharashtra", "outlet_timing": "Opens at 11:00 AM", "map": "https://stores.vijaysales.com/vijay-sales-vashi-electronics-retail-and-repair-shop-vashi-sector-19d-navi-mumbai-280975/Map"},
{"store_name": "VIJAY SALES - PANVEL", "store_website": "https://stores.vijaysales.com/vijay-sales-panvel-electronics-retail-and-repair-shop-panvel-navi-mumbai-280974/Home", "phone": "+912227466017", "address": "Plot No 312, TPS No 1, Leela Madhav Cplx, Near Pune Highway Panvel Navi Mumbai  -  410206", "near_by_place": "", "location": "vashi-sector-19d", "city": "navi-mumbai", "state": "maharashtra", "outlet_timing": "Opens at 11:00 AM", "map": "https://stores.vijaysales.com/vijay-sales-panvel-electronics-retail-and-repair-shop-panvel-navi-mumbai-280974/Map"},
{"store_name": "VIJAY SALES - KHARGHAR", "store_website": "https://stores.vijaysales.com/vijay-sales-kharghar-electronics-retail-and-repair-shop-kharghar-sector-2-navi-mumbai-280976/Home", "phone": "+912227742133", "address": "Plot No 21, 2nd Floor, Little World Mall Kharghar, Sector 2 Navi Mumbai  -  410210", "near_by_place": "", "location": "vashi-sector-19d", "city": "navi-mumbai", "state": "maharashtra", "outlet_timing": "Opens at 11:00 AM", "map": "https://stores.vijaysales.com/vijay-sales-kharghar-electronics-retail-and-repair-shop-kharghar-sector-2-navi-mumbai-280976/Map"},
{"store_name": "Vijay Sales - Kharghar Patel Heritage", "store_website": "https://stores.vijaysales.com/vijay-sales-kharghar-patel-heritage-electronics-retail-and-repair-shop-sector-7-kharghar-navi-mumbai-313411/Home", "phone": "+912269461100", "address": "Shop No 28 to 17, Patel Heritage, Plot No 15 Sector 7, Kharghar Navi Mumbai  -  410210", "near_by_place": "", "location": "vashi-sector-19d", "city": "navi-mumbai", "state": "maharashtra", "outlet_timing": "Opens at 11:00 AM", "map": "https://stores.vijaysales.com/vijay-sales-kharghar-patel-heritage-electronics-retail-and-repair-shop-sector-7-kharghar-navi-mumbai-313411/Map"},
{"store_name": "VIJAY SALES - CHINCHWAD", "store_website": "https://stores.vijaysales.com/vijay-sales-chinchwad-electronics-retail-and-repair-shop-pimpri-chinchwad-pimpri-chinchwad-280981/Home", "phone": "+912067301400", "address": "No Cb/2/001, Empire Estate, Old Pune Mumbai Highway Pimpri Chinchwad Pimpri Chinchwad  -  411019", "near_by_place": "Near Ranka Jwellers", "location": "pimpri-chinchwad", "city": "pimpri-chinchwad", "state": "maharashtra", "outlet_timing": "Opens at 11:00 AM", "map": "https://stores.vijaysales.com/vijay-sales-chinchwad-electronics-retail-and-repair-shop-pimpri-chinchwad-pimpri-chinchwad-280981/Map"},
{"store_name": "VIJAY SALES - GHODBUNDER", "store_website": "https://stores.vijaysales.com/vijay-sales-ghodbunder-electronics-retail-and-repair-shop-kapurbawadi-thane-280932/Home", "phone": "+912235075300", "address": "Ghodbunder Road Kapurbawadi Thane  -  400602", "near_by_place": "Opposite Wonder Mall", "location": "vasai-west", "city": "thane", "state": "maharashtra", "outlet_timing": "Opens at 11:00 AM", "map": "https://stores.vijaysales.com/vijay-sales-ghodbunder-electronics-retail-and-repair-shop-kapurbawadi-thane-280932/Map"},
{"store_name": "VIJAY SALES - MIRA ROAD", "store_website": "https://stores.vijaysales.com/vijay-sales-mira-road-electronics-retail-and-repair-shop-mira-road-east-thane-280937/Home", "phone": "+912271066650", "address": "Samta Sadan, Bhayander Road Mira Road East Thane  -  401107", "near_by_place": "Near Veggies Restaurants", "location": "vasai-west", "city": "thane", "state": "maharashtra", "outlet_timing": "Opens at 11:00 AM", "map": "https://stores.vijaysales.com/vijay-sales-mira-road-electronics-retail-and-repair-shop-mira-road-east-thane-280937/Map"},
{"store_name": "VIJAY SALES - VASAI", "store_website": "https://stores.vijaysales.com/vijay-sales-vasai-electronics-retail-and-repair-shop-vasai-west-thane-280935/Home", "phone": "+912266222100", "address": "Tania Shopping Mall, Babole Naka Vasai West Thane  -  401202", "near_by_place": "Next to D Mart Mall", "location": "vasai-west", "city": "thane", "state": "maharashtra", "outlet_timing": "Opens at 11:00 AM", "map": "https://stores.vijaysales.com/vijay-sales-vasai-electronics-retail-and-repair-shop-vasai-west-thane-280935/Map"},
{"store_name": "VIJAY SALES - DOMBIVILI", "store_website": "https://stores.vijaysales.com/vijay-sales-dombivili-electronics-retail-and-repair-shop-dombivli-east-thane-280973/Home", "phone": "+912512476467", "address": "Bldg No D, Konark Arcade, Gharda Circle, Dombivili Sports Complex Dombivli East Thane  -  421204", "near_by_place": "Near Pendhekar College", "location": "vasai-west", "city": "thane", "state": "maharashtra", "outlet_timing": "Opens at 11:00 AM", "map": "https://stores.vijaysales.com/vijay-sales-dombivili-electronics-retail-and-repair-shop-dombivli-east-thane-280973/Map"},
{"store_name": "VIJAY SALES - KALYAN (WEST)", "store_website": "https://stores.vijaysales.com/vijay-sales-kalyan-west-electronics-retail-and-repair-shop-kalyan-west-thane-280933/Home", "phone": "+912516760404", "address": "Sant Sawatamali Vegetable Mkt Kalyan West Thane  -  421301", "near_by_place": "Opposite Bindu Towers", "location": "vasai-west", "city": "thane", "state": "maharashtra", "outlet_timing": "Opens at 11:00 AM", "map": "https://stores.vijaysales.com/vijay-sales-kalyan-west-electronics-retail-and-repair-shop-kalyan-west-thane-280933/Map"},
{"store_name": "VIJAY SALES - BHIWANDI", "store_website": "https://stores.vijaysales.com/vijay-sales-bhiwandi-electronics-retail-and-repair-shop-bhiwandi-thane-280936/Home", "phone": "+912522661500", "address": "Ground Floor, Mahipatrai Chamber, Bhiwandi Kalyan Road Bhiwandi Thane  -  421302", "near_by_place": "Opposite Axis Bank", "location": "vasai-west", "city": "thane", "state": "maharashtra", "outlet_timing": "Opens at 11:00 AM", "map": "https://stores.vijaysales.com/vijay-sales-bhiwandi-electronics-retail-and-repair-shop-bhiwandi-thane-280936/Map"},
{"store_name": "VIJAY SALES - NALASOPARA", "store_website": "https://stores.vijaysales.com/vijay-sales-nalasopara-electronics-retail-and-repair-shop-palghar-virar-281009/Home", "phone": "+918459610160", "address": "Ground Floor, Tania Horizon, Station Rd, Shriprastha Palghar Virar  -  401203", "near_by_place": "Nalasopara West", "location": "virar-west", "city": "virar", "state": "maharashtra", "outlet_timing": "Opens at 11:00 AM", "map": "https://stores.vijaysales.com/vijay-sales-nalasopara-electronics-retail-and-repair-shop-palghar-virar-281009/Map"},
{"store_name": "VIJAY SALES - VIRAR", "store_website": "https://stores.vijaysales.com/vijay-sales-virar-electronics-retail-and-repair-shop-virar-west-virar-280992/Home", "phone": "+912503505444", "address": "Twin Tower, Tirupati Nagar, Palghar, Phz 2 Virar West Virar  -  401303", "near_by_place": "", "location": "virar-west", "city": "virar", "state": "maharashtra", "outlet_timing": "Opens at 11:00 AM", "map": "https://stores.vijaysales.com/vijay-sales-virar-electronics-retail-and-repair-shop-virar-west-virar-280992/Map"},
{"store_name": "VIJAY SALES - RAJAHMUNDRY", "store_website": "https://stores.vijaysales.com/vijay-sales-rajahmundry-electronics-retail-and-repair-shop-innespeta-rajahmundry-281032/Home", "phone": "+918836677661", "address": "Door No 36/3/1 & 2, Maturu Aikya, East Godavari Innespeta Rajahmundry  -  533101", "near_by_place": "Near Sai Krishna Theatre", "location": "rajamahendravaram", "city": "rajahmundry", "state": "andhra-pradesh", "outlet_timing": "Opens at 10:00 AM", "map": "https://stores.vijaysales.com/vijay-sales-rajahmundry-electronics-retail-and-repair-shop-innespeta-rajahmundry-281032/Map"},
{"store_name": "VIJAY SALES - JN Road (Rajahmundry)", "store_website": "https://stores.vijaysales.com/vijay-sales-jn-road-rajahmundry-electronics-retail-and-repair-shop-rajamahendravaram-rajahmundry-280964/Home", "phone": "+918833500070", "address": "D No 80/31/16/1, Jawaharlal Nehru Road, Revenue Ward No 29 Rajamahendravaram Rajahmundry  -  533103", "near_by_place": "Opp Sitara Restaurant", "location": "rajamahendravaram", "city": "rajahmundry", "state": "andhra-pradesh", "outlet_timing": "Opens at 11:00 AM", "map": "https://stores.vijaysales.com/vijay-sales-jn-road-rajahmundry-electronics-retail-and-repair-shop-rajamahendravaram-rajahmundry-280964/Map"},
{"store_name": "VIJAY SALES - KAKINADA", "store_website": "https://stores.vijaysales.com/vijay-sales-kakinada-electronics-retail-and-repair-shop-surya-rao-peta-kakinada-281031/Home", "phone": "+918846666612", "address": "No 13/1/1, Sri Sai Brundavan Complex, Main Road Surya Rao Peta Kakinada  -  533001", "near_by_place": "Beside Apollo Hospital", "location": "surya-rao-peta", "city": "kakinada", "state": "andhra-pradesh", "outlet_timing": "Opens at 10:00 AM", "map": "https://stores.vijaysales.com/vijay-sales-kakinada-electronics-retail-and-repair-shop-surya-rao-peta-kakinada-281031/Map"},
{"store_name": "VIJAY SALES - VIZAG", "store_website": "https://stores.vijaysales.com/vijay-sales-vizag-electronics-retail-and-repair-shop-dondaparthy-visakhapatnam-281013/Home", "phone": "+918912572887", "address": "No 46/15/43 & 48, Bus Stop Dondaparthy Visakhapatnam  -  530016", "near_by_place": "Beside Manoj Textiles", "location": "dondaparthy", "city": "visakhapatnam", "state": "andhra-pradesh", "outlet_timing": "Opens at 10:30 AM", "map": "https://stores.vijaysales.com/vijay-sales-vizag-electronics-retail-and-repair-shop-dondaparthy-visakhapatnam-281013/Map"},
{"store_name": "VIJAY SALES - VED ROAD", "store_website": "https://stores.vijaysales.com/vijay-sales-ved-road-electronics-retail-and-repair-shop-katargram-surat-280968/Home", "phone": "+912616673777", "address": "TPS No 24, FP No 34, Sub Plot No 2, Ved Road Katargram Surat  -  395004", "near_by_place": "Opp Akhand Anand College", "location": "vesu", "city": "surat", "state": "gujarat", "outlet_timing": "Opens at 11:00 AM", "map": "https://stores.vijaysales.com/vijay-sales-ved-road-electronics-retail-and-repair-shop-katargram-surat-280968/Map"},
{"store_name": "VIJAY SALES - VARACHHA", "store_website": "https://stores.vijaysales.com/vijay-sales-varachha-electronics-retail-and-repair-shop-varachha-road-surat-280993/Home", "phone": "+912616717000", "address": "Central Bazar Varachha Road Surat  -  395006", "near_by_place": "Opposite Varachha Police Station", "location": "vesu", "city": "surat", "state": "gujarat", "outlet_timing": "Opens at 11:00 AM", "map": "https://stores.vijaysales.com/vijay-sales-varachha-electronics-retail-and-repair-shop-varachha-road-surat-280993/Map"},
{"store_name": "VIJAY SALES - PIPLOD", "store_website": "https://stores.vijaysales.com/vijay-sales-piplod-electronics-retail-and-repair-shop-piplod-surat-280929/Home", "phone": "+912616712222", "address": "Iscon Mall, Surat Dumas Road Piplod Surat  -  395007", "near_by_place": "Opposite Shantiniketan Apartment", "location": "varachha-road", "city": "surat", "state": "gujarat", "outlet_timing": "Opens at 11:00 AM", "map": "https://stores.vijaysales.com/vijay-sales-piplod-electronics-retail-and-repair-shop-piplod-surat-280929/Map"},
{"store_name": "VIJAY SALES - BHATAR", "store_website": "https://stores.vijaysales.com/vijay-sales-bhatar-electronics-retail-and-repair-shop-bhatar-surat-280955/Home", "phone": "+912616911100", "address": "Solaris Oracle, New Civil Road Bhatar Surat  -  395007", "near_by_place": "Near Navjivan Circle", "location": "varachha-road", "city": "surat", "state": "gujarat", "outlet_timing": "Opens at 11:00 AM", "map": "https://stores.vijaysales.com/vijay-sales-bhatar-electronics-retail-and-repair-shop-bhatar-surat-280955/Map"},
{"store_name": "VIJAY SALES - VESU", "store_website": "https://stores.vijaysales.com/vijay-sales-vesu-electronics-retail-and-repair-shop-vesu-surat-280961/Home", "phone": "+912613547555", "address": "Plot No 94, VIP Road Vesu Surat  -  395007", "near_by_place": "Opposite Nandanvan 2 Apartments", "location": "tadwadi", "city": "surat", "state": "gujarat", "outlet_timing": "Opens at 11:00 AM", "map": "https://stores.vijaysales.com/vijay-sales-vesu-electronics-retail-and-repair-shop-vesu-surat-280961/Map"},
{"store_name": "VIJAY SALES - RANDER ROAD", "store_website": "https://stores.vijaysales.com/vijay-sales-rander-road-electronics-retail-and-repair-shop-tadwadi-surat-280938/Home", "phone": "+912616711111", "address": "Raina Arcade, Rander Road Tadwadi Surat  -  395009", "near_by_place": "Opp Satyam Apartment", "location": "tadwadi", "city": "surat", "state": "gujarat", "outlet_timing": "Opens at 11:00 AM", "map": "https://stores.vijaysales.com/vijay-sales-rander-road-electronics-retail-and-repair-shop-tadwadi-surat-280938/Map"},
{"store_name": "VIJAY SALES - KOTHI ROAD", "store_website": "https://stores.vijaysales.com/vijay-sales-kothi-road-electronics-retail-and-repair-shop-raopura-vadodara-280948/Home", "phone": "+912656914400", "address": "Samir Building, Kothi Road Raopura Vadodara  -  390001", "near_by_place": "", "location": "manjalpur", "city": "vadodara", "state": "gujarat", "outlet_timing": "Opens at 11:00 AM", "map": "https://stores.vijaysales.com/vijay-sales-kothi-road-electronics-retail-and-repair-shop-raopura-vadodara-280948/Map"},
{"store_name": "VIJAY SALES - MANJALPUR", "store_website": "https://stores.vijaysales.com/vijay-sales-manjalpur-electronics-retail-and-repair-shop-manjalpur-vadodara-281008/Home", "phone": "+912656162100", "address": "Ground Floor, Janshakti Reliance Circle, Lalbaug Manjalpur Vadodara  -  390004", "near_by_place": "Near Shreyas School Vidyalaya", "location": "manjalpur", "city": "vadodara", "state": "gujarat", "outlet_timing": "Opens at 10:00 AM", "map": "https://stores.vijaysales.com/vijay-sales-manjalpur-electronics-retail-and-repair-shop-manjalpur-vadodara-281008/Map"},
{"store_name": "VIJAY SALES - VADODARA", "store_website": "https://stores.vijaysales.com/vijay-sales-vadodara-electronics-retail-and-repair-shop-alkapuri-vadodara-280989/Home", "phone": "+912656190000", "address": "M Cube, Jetalpur Road, Chakali Circle Alkapuri Vadodara  -  390007", "near_by_place": "", "location": "manjalpur", "city": "vadodara", "state": "gujarat", "outlet_timing": "Opens at 10:00 AM", "map": "https://stores.vijaysales.com/vijay-sales-vadodara-electronics-retail-and-repair-shop-alkapuri-vadodara-280989/Map"},
{"store_name": "VIJAY SALES - HANUMAKONDA", "store_website": "https://stores.vijaysales.com/vijay-sales-hanumakonda-electronics-retail-and-repair-shop-nakkalagutta-warangal-281012/Home", "phone": "+918702533333", "address": "No 1/8/525, Warangal Nakkalagutta Warangal  -  506001", "near_by_place": "Opposite SBI", "location": "nakkalagutta", "city": "warangal", "state": "telangana", "outlet_timing": "Opens at 11:00 AM", "map": "https://stores.vijaysales.com/vijay-sales-hanumakonda-electronics-retail-and-repair-shop-nakkalagutta-warangal-281012/Map"},
{"store_name": "VIJAY SALES - WARANGAL POCHAMMA MAIDAN JUNCTION", "store_website": "https://stores.vijaysales.com/vijay-sales-warangal-pochamma-maidan-junction-electronics-retail-and-repair-shop-pochamma-maidan-junction-warangal-280946/Home", "phone": "+918702930685", "address": "D No 11/24/439 Pochamma Maidan Junction Warangal  -  506002", "near_by_place": "Beside Bsnl Office", "location": "nakkalagutta", "city": "warangal", "state": "telangana", "outlet_timing": "Opens at 11:00 AM", "map": "https://stores.vijaysales.com/vijay-sales-warangal-pochamma-maidan-junction-electronics-retail-and-repair-shop-pochamma-maidan-junction-warangal-280946/Map"},
{"store_name": "VIJAY SALES - BADLAPUR (EAST)", "store_website": "https://stores.vijaysales.com/vijay-sales-badlapur-east-electronics-retail-and-repair-shop-badlapur-east-badlapur-281035/Home", "phone": "+917208890077", "address": "Ground Floor, Dream Makers, Station Road, Kulgaon Badlapur East Badlapur  -  421503", "near_by_place": "Besides Yatrik Hotel", "location": "badlapur-east", "city": "badlapur", "state": "maharashtra", "outlet_timing": "Opens at 10:30 AM", "map": "https://stores.vijaysales.com/vijay-sales-badlapur-east-electronics-retail-and-repair-shop-badlapur-east-badlapur-281035/Map"}
]